{
  "version": 0.6,
  "generator": "Overpass API 0.7.62.11 87bfad18",
  "osm3s": {
    "timestamp_osm_base": "2026-03-18T15:49:45Z",
    "copyright": "The data included in this document is from www.openstreetmap.org. The data is made available under ODbL."
  },
  "elements": [

{
  "type": "way",
  "id": 50126998,
  "center": {
    "lat": -34.8673689,
    "lon": -58.4967804
  },
  "nodes": [
    636920481,
    636920471,
    636920474,
    636920476,
    636920479,
    636920491,
    636920500,
    636920481
  ],
  "tags": {
    "building": "construction",
    "construction": "residential",
    "landuse": "construction",
    "layer": "1",
    "name": "Open Canning",
    "operator": "Portland Group",
    "residential": "apartments"
  }
},
{
  "type": "way",
  "id": 184753019,
  "center": {
    "lat": -34.8731468,
    "lon": -58.4844275
  },
  "nodes": [
    1861779746,
    1861779712,
    1952681684,
    1952681683,
    1861779746
  ],
  "tags": {
    "building": "yes"
  }
},
{
  "type": "way",
  "id": 184753020,
  "center": {
    "lat": -34.8730714,
    "lon": -58.4840282
  },
  "nodes": [
    1952681677,
    1952681682,
    1952681685,
    1952681678,
    1952681677
  ],
  "tags": {
    "building": "yes"
  }
},
{
  "type": "way",
  "id": 257540964,
  "center": {
    "lat": -34.8766280,
    "lon": -58.4942102
  },
  "nodes": [
    2630417200,
    13147212110,
    13147212109,
    2630417201,
    13147212112,
    2630417202,
    2630417203,
    13147212113,
    2630417205,
    2630417206,
    13147212114,
    2630417208,
    13147212115,
    2630417209,
    2630417211,
    2630417212,
    13147212111,
    13147212108,
    13147212103,
    2630417200
  ],
  "tags": {
    "building": "yes",
    "name": "Club House"
  }
},
{
  "type": "way",
  "id": 257540972,
  "center": {
    "lat": -34.8732445,
    "lon": -58.4943747
  },
  "nodes": [
    2630417243,
    2630417245,
    2630417246,
    2630417247,
    2630417243
  ],
  "tags": {
    "building": "garage",
    "name": "Estacionamiento Golf"
  }
},
{
  "type": "way",
  "id": 459234373,
  "center": {
    "lat": -34.8727325,
    "lon": -58.5033625
  },
  "nodes": [
    4551370806,
    9622627362,
    9622627363,
    4551370807,
    4551370808,
    4551370809,
    4551370810,
    4551370811,
    4551370812,
    4551370813,
    4551370814,
    4551370815,
    4551370816,
    9622627361,
    9622627360,
    9622627359,
    9622627358,
    4551370806
  ],
  "tags": {
    "addr:street": "Emilio Mitre",
    "building": "yes",
    "leisure": "sports_centre",
    "name": "Sport Club",
    "source": "Reconocimiento terrestre por Kaart 2016"
  }
},
{
  "type": "way",
  "id": 459244636,
  "center": {
    "lat": -34.8731489,
    "lon": -58.5032610
  },
  "nodes": [
    4551455028,
    4551455029,
    4551455030,
    4551455031,
    4551455032,
    4551455033,
    4551455028
  ],
  "tags": {
    "building": "yes",
    "name": "Jeep Cars",
    "shop": "car"
  }
},
{
  "type": "way",
  "id": 459244637,
  "center": {
    "lat": -34.8734776,
    "lon": -58.5032319
  },
  "nodes": [
    4551455034,
    4551455035,
    4551455036,
    4551455037,
    4551455038,
    4551455039,
    4551455040,
    4551455034
  ],
  "tags": {
    "building": "commercial"
  }
},
{
  "type": "way",
  "id": 459244638,
  "center": {
    "lat": -34.8765470,
    "lon": -58.5037638
  },
  "nodes": [
    4551455043,
    4551455044,
    4551455045,
    4551455046,
    4551455043
  ],
  "tags": {
    "building": "yes",
    "name": "Musel",
    "shop": "bakery"
  }
},
{
  "type": "way",
  "id": 467510684,
  "center": {
    "lat": -34.8651079,
    "lon": -58.5034585
  },
  "nodes": [
    4621234222,
    4621234223,
    4621234224,
    4621234225,
    4621234222
  ],
  "tags": {
    "addr:street": "Lacarra",
    "building": "commercial",
    "name": "Union de Sindicatos de la Industria Maderera de la Republica Argentina",
    "office": "union"
  }
},
{
  "type": "way",
  "id": 467512226,
  "center": {
    "lat": -34.8608834,
    "lon": -58.5022455
  },
  "nodes": [
    4621244498,
    4621244499,
    4621244500,
    4621244501,
    4621244498
  ],
  "tags": {
    "addr:street": "Avenida Mariano Castex",
    "building": "yes",
    "name": "Prestigio",
    "shop": "paint"
  }
},
{
  "type": "way",
  "id": 467512227,
  "center": {
    "lat": -34.8602172,
    "lon": -58.5021567
  },
  "nodes": [
    4621244502,
    4621244503,
    4621244504,
    4621244505,
    4621244502
  ],
  "tags": {
    "addr:city": "Canning",
    "addr:country": "AR",
    "addr:housenumber": "1356",
    "addr:postcode": "1807",
    "addr:province": "Buenos Aires",
    "addr:street": "Avenida Mariano Castex",
    "amenity": "restaurant",
    "building": "yes",
    "building:levels": "1",
    "contact:facebook": "https://www.facebook.com/sushiclubargentina/",
    "contact:instagram": "https://www.instagram.com/SushiClub_ar/",
    "contact:twitter": "https://twitter.com/SushiClub_ar/",
    "cuisine": "sushi",
    "delivery": "yes",
    "email": "contacto@sushiclub.com.ar",
    "name": "SushiClub",
    "opening_hours": "Su-We 19:30-24:00; Th 19:30-01:00; Fr,Sa 19:30-02:00",
    "phone:AR": "0810-222-7874",
    "takeaway": "yes",
    "website": "https://www.sushiclub.com.ar/"
  }
},
{
  "type": "way",
  "id": 467512228,
  "center": {
    "lat": -34.8599749,
    "lon": -58.5022171
  },
  "nodes": [
    4621244507,
    4621244508,
    4621244509,
    4621244510,
    4621244507
  ],
  "tags": {
    "addr:street": "Avenida Mariano Castex",
    "building": "yes",
    "name": "Castex",
    "shop": "electrical"
  }
},
{
  "type": "way",
  "id": 467512229,
  "center": {
    "lat": -34.8588971,
    "lon": -58.5022570
  },
  "nodes": [
    4621244511,
    4621244512,
    4621244513,
    4621244514,
    4621244511
  ],
  "tags": {
    "addr:street": "Avenida Mariano Castex",
    "building": "yes",
    "name": "Casa Armando",
    "shop": "trade"
  }
},
{
  "type": "way",
  "id": 467512230,
  "center": {
    "lat": -34.8583773,
    "lon": -58.5022120
  },
  "nodes": [
    4621244515,
    4621244516,
    4621244517,
    4621244518,
    4621244515
  ],
  "tags": {
    "addr:street": "Avenida Mariano Castex",
    "building": "yes",
    "name": "Baño Mania",
    "shop": "bathroom_furnishing"
  }
},
{
  "type": "way",
  "id": 511795453,
  "center": {
    "lat": -34.8670145,
    "lon": -58.5027806
  },
  "nodes": [
    5005488572,
    9622627387,
    5005488573,
    6074355648,
    9622627391,
    5005488574,
    9622627390,
    9622627386,
    5005488575,
    5005488572
  ],
  "tags": {
    "building": "roof",
    "layer": "1"
  }
},
{
  "type": "way",
  "id": 511795454,
  "center": {
    "lat": -34.8662263,
    "lon": -58.5027903
  },
  "nodes": [
    5005488576,
    5005488577,
    5005488578,
    5005488579,
    5005488580,
    5005488581,
    5005488582,
    5005488583,
    5005488584,
    5005488585,
    5005488586,
    5005488587,
    5005488588,
    5005488589,
    5005488590,
    5005488591,
    5005488576
  ],
  "tags": {
    "building": "yes",
    "name": "La aldea",
    "shop": "mall"
  }
},
{
  "type": "way",
  "id": 514625851,
  "center": {
    "lat": -34.8598191,
    "lon": -58.5034500
  },
  "nodes": [
    5027378495,
    5027378496,
    5027378497,
    5027378498,
    5027378499,
    5027378500,
    5027378501,
    5027378502,
    5027378503,
    5027378504,
    5027378505,
    5027378506,
    5027378507,
    5027378508,
    5027378495
  ],
  "tags": {
    "building": "commercial"
  }
},
{
  "type": "way",
  "id": 514625852,
  "center": {
    "lat": -34.8600842,
    "lon": -58.5039252
  },
  "nodes": [
    5027378509,
    5027378516,
    5027378510,
    5027378511,
    5027378512,
    5027378513,
    5027378514,
    5027378515,
    5027378509
  ],
  "tags": {
    "building": "commercial"
  }
},
{
  "type": "way",
  "id": 514625853,
  "center": {
    "lat": -34.8602272,
    "lon": -58.5035527
  },
  "nodes": [
    5027378517,
    5027378518,
    5027378519,
    5027378520,
    5027381321,
    5027381322,
    5027381323,
    5027381324,
    5027381325,
    5027381326,
    5027381327,
    5027381328,
    5027381329,
    5027381330,
    5027381331,
    5027381332,
    5027381333,
    5027381334,
    5027381335,
    5027381336,
    5027381337,
    5027381338,
    5027381339,
    5027381340,
    5027381341,
    5027381342,
    5027381343,
    5027381344,
    5027381345,
    5027381346,
    5027381347,
    5027381348,
    5027381349,
    5027381350,
    5027381351,
    5027381352,
    5027381353,
    5027381354,
    5027381355,
    5027378517
  ],
  "tags": {
    "building": "commercial"
  }
},
{
  "type": "way",
  "id": 514625854,
  "center": {
    "lat": -34.8607147,
    "lon": -58.5031891
  },
  "nodes": [
    5027381356,
    5027381357,
    5027381358,
    5027381359,
    5027381360,
    5027381361,
    5027381362,
    5027381363,
    5027381356
  ],
  "tags": {
    "building": "commercial"
  }
},
{
  "type": "way",
  "id": 514625855,
  "center": {
    "lat": -34.8605905,
    "lon": -58.5034774
  },
  "nodes": [
    5027381364,
    5027381365,
    5027381366,
    5027381367,
    5027381368,
    5027381369,
    5027381370,
    5027381371,
    5027381372,
    5027381373,
    5027381364
  ],
  "tags": {
    "building": "commercial"
  }
},
{
  "type": "way",
  "id": 514625856,
  "center": {
    "lat": -34.8610388,
    "lon": -58.5033720
  },
  "nodes": [
    5027381374,
    5027381375,
    5027381376,
    5027381377,
    5027381378,
    5027381374
  ],
  "tags": {
    "building": "commercial"
  }
},
{
  "type": "way",
  "id": 514625857,
  "center": {
    "lat": -34.8612069,
    "lon": -58.5031519
  },
  "nodes": [
    5027381379,
    5027381380,
    5027381381,
    5027381382,
    5027381383,
    5027381384,
    5027381385,
    5027381386,
    5027381379
  ],
  "tags": {
    "building": "commercial"
  }
},
{
  "type": "way",
  "id": 1046363494,
  "center": {
    "lat": -34.8672915,
    "lon": -58.5029040
  },
  "nodes": [
    9622627379,
    9622627378,
    9622627377,
    9622627376,
    9622627379
  ],
  "tags": {
    "building": "yes"
  }
},
{
  "type": "way",
  "id": 1046363495,
  "center": {
    "lat": -34.8671810,
    "lon": -58.5029033
  },
  "nodes": [
    9622627380,
    9622627383,
    9622627382,
    9622627381,
    9622627380
  ],
  "tags": {
    "building": "yes"
  }
},
{
  "type": "way",
  "id": 1046363496,
  "center": {
    "lat": -34.8668871,
    "lon": -58.5029405
  },
  "nodes": [
    9622627389,
    9622627388,
    9622627387,
    5005488572,
    5005488575,
    9622627386,
    9622627385,
    9622627384,
    9622627389
  ],
  "tags": {
    "building": "yes"
  }
},
{
  "type": "way",
  "id": 1240553868,
  "center": {
    "lat": -34.8709566,
    "lon": -58.5032262
  },
  "nodes": [
    11525708817,
    11525708818,
    11525708819,
    11525708822,
    11525708823,
    11525708820,
    11525708821,
    11525708817
  ],
  "tags": {
    "addr:city": "Canning",
    "addr:housenumber": "88",
    "addr:street": "Lavardén",
    "amenity": "ice_cream",
    "building": "yes",
    "name": "La Veneciana Helados",
    "outdoor_seating": "yes"
  }
},
{
  "type": "way",
  "id": 1430247858,
  "center": {
    "lat": -34.8716066,
    "lon": -58.4889606
  },
  "nodes": [
    13147166820,
    13147166821,
    13147166822,
    13147166825,
    13147166826,
    13147166823,
    13147166827,
    13147166824,
    13147166820
  ],
  "tags": {
    "building": "yes"
  }
},
{
  "type": "way",
  "id": 1430247859,
  "center": {
    "lat": -34.8717523,
    "lon": -58.4880653
  },
  "nodes": [
    13147166828,
    13147166829,
    13147166830,
    13147166831,
    13147166832,
    13147166833,
    13147166834,
    13147166835,
    13147166836,
    13147166837,
    13147166838,
    13147166839,
    13147166828
  ],
  "tags": {
    "building": "yes"
  }
},
{
  "type": "way",
  "id": 1430247867,
  "center": {
    "lat": -34.8696032,
    "lon": -58.4848234
  },
  "nodes": [
    13147166861,
    13147166862,
    13147166863,
    13147166864,
    13147166861
  ],
  "tags": {
    "building": "yes"
  }
},
{
  "type": "way",
  "id": 1430247868,
  "center": {
    "lat": -34.8694794,
    "lon": -58.4854745
  },
  "nodes": [
    13147166865,
    13147166866,
    13147166867,
    13147166868,
    13147166865
  ],
  "tags": {
    "building": "yes"
  }
},
{
  "type": "way",
  "id": 1430247871,
  "center": {
    "lat": -34.8753143,
    "lon": -58.4941420
  },
  "nodes": [
    13147166896,
    13147166897,
    13147166898,
    13147166899,
    13147166900,
    13147212101,
    13147166896
  ],
  "tags": {
    "building": "yes"
  }
}

  ]
}
